var omadata = {
  "type" : "FeatureCollection",
  "features" : [
    {
      "type" : "Feature",
      "id" : 1,
      "geometry" : {
        "type" : "Point",
        "coordinates" : [
          -92.354628999999989,
          41.401397000000031
        ]
      },
      "properties" : {
        "OBJECTID" : 1,
        "name" : "Masonic Opera House: What Cheer, IA",
        "latitude" : 41.401397000000003,
        "longitude" : -92.354629000000003,
        "time" : -2082844800000
      }
    },
    {
      "type" : "Feature",
      "id" : 2,
      "geometry" : {
        "type" : "Point",
        "coordinates" : [
          -92.354628999999989,
          41.401397000000031
        ]
      },
      "properties" : {
        "OBJECTID" : 2,
        "name" : "Masonic Opera House: What Cheer, IA",
        "latitude" : 41.401397000000003,
        "longitude" : -92.354629000000003,
        "time" : -2082758400000
      }
    },
    {
      "type" : "Feature",
      "id" : 3,
      "geometry" : {
        "type" : "Point",
        "coordinates" : [
          -92.527430999999979,
          41.58487800000006
        ]
      },
      "properties" : {
        "OBJECTID" : 3,
        "name" : "Montezuma Opera House: Montezuma, IA",
        "latitude" : 41.584878000000003,
        "longitude" : -92.527431000000007,
        "time" : -2082585600000
      }
    },
    {
      "type" : "Feature",
      "id" : 4,
      "geometry" : {
        "type" : "Point",
        "coordinates" : [
          -92.527430999999979,
          41.58487800000006
        ]
      },
      "properties" : {
        "OBJECTID" : 4,
        "name" : "Montezuma Opera House: Montezuma, IA",
        "latitude" : 41.584878000000003,
        "longitude" : -92.527431000000007,
        "time" : -2082499200000
      }
    },
    {
      "type" : "Feature",
      "id" : 5,
      "geometry" : {
        "type" : "Point",
        "coordinates" : [
          -92.527430999999979,
          41.58487800000006
        ]
      },
      "properties" : {
        "OBJECTID" : 5,
        "name" : "Montezuma Opera House: Montezuma, IA",
        "latitude" : 41.584878000000003,
        "longitude" : -92.527431000000007,
        "time" : -2082412800000
      }
    },
    {
      "type" : "Feature",
      "id" : 6,
      "geometry" : {
        "type" : "Point",
        "coordinates" : [
          -92.076288999999974,
          41.51389800000004
        ]
      },
      "properties" : {
        "OBJECTID" : 6,
        "name" : "North English, IA",
        "latitude" : 41.513897999999998,
        "longitude" : -92.076289000000003,
        "time" : -2082326400000
      }
    },
    {
      "type" : "Feature",
      "id" : 7,
      "geometry" : {
        "type" : "Point",
        "coordinates" : [
          -92.009505999999988,
          41.661228000000051
        ]
      },
      "properties" : {
        "OBJECTID" : 7,
        "name" : "Trojan Opera House: Williamsburg, IA",
        "latitude" : 41.661228000000001,
        "longitude" : -92.009506000000002,
        "time" : -2082240000000
      }
    },
    {
      "type" : "Feature",
      "id" : 8,
      "geometry" : {
        "type" : "Point",
        "coordinates" : [
          -92.009505999999988,
          41.661228000000051
        ]
      },
      "properties" : {
        "OBJECTID" : 8,
        "name" : "Trojan Opera House: Williamsburg, IA",
        "latitude" : 41.661228000000001,
        "longitude" : -92.009506000000002,
        "time" : -2082153600000
      }
    },
    {
      "type" : "Feature",
      "id" : 9,
      "geometry" : {
        "type" : "Point",
        "coordinates" : [
          -91.892777999999964,
          42.470465000000047
        ]
      },
      "properties" : {
        "OBJECTID" : 9,
        "name" : "The Gedney: Independence, IA",
        "latitude" : 42.470464999999997,
        "longitude" : -91.892778000000007,
        "time" : -2081980800000
      }
    },
    {
      "type" : "Feature",
      "id" : 10,
      "geometry" : {
        "type" : "Point",
        "coordinates" : [
          -91.892777999999964,
          42.470465000000047
        ]
      },
      "properties" : {
        "OBJECTID" : 10,
        "name" : "The Gedney: Independence, IA",
        "latitude" : 42.470464999999997,
        "longitude" : -91.892778000000007,
        "time" : -2081894400000
      }
    },
    {
      "type" : "Feature",
      "id" : 11,
      "geometry" : {
        "type" : "Point",
        "coordinates" : [
          -91.892777999999964,
          42.470465000000047
        ]
      },
      "properties" : {
        "OBJECTID" : 11,
        "name" : "The Gedney: Independence, IA",
        "latitude" : 42.470464999999997,
        "longitude" : -91.892778000000007,
        "time" : -2081808000000
      }
    },
    {
      "type" : "Feature",
      "id" : 12,
      "geometry" : {
        "type" : "Point",
        "coordinates" : [
          -91.186942999999985,
          42.238275000000044
        ]
      },
      "properties" : {
        "OBJECTID" : 12,
        "name" : "Monticello Opera House: Monticello, IA",
        "latitude" : 42.238275000000002,
        "longitude" : -91.186942999999999,
        "time" : -2081808000000
      }
    },
    {
      "type" : "Feature",
      "id" : 13,
      "geometry" : {
        "type" : "Point",
        "coordinates" : [
          -91.186942999999985,
          42.238275000000044
        ]
      },
      "properties" : {
        "OBJECTID" : 13,
        "name" : "Monticello Opera House: Monticello, IA",
        "latitude" : 42.238275000000002,
        "longitude" : -91.186942999999999,
        "time" : -2081721600000
      }
    },
    {
      "type" : "Feature",
      "id" : 14,
      "geometry" : {
        "type" : "Point",
        "coordinates" : [
          -91.186942999999985,
          42.238275000000044
        ]
      },
      "properties" : {
        "OBJECTID" : 14,
        "name" : "Monticello Opera House: Monticello, IA",
        "latitude" : 42.238275000000002,
        "longitude" : -91.186942999999999,
        "time" : -2081635200000
      }
    },
    {
      "type" : "Feature",
      "id" : 15,
      "geometry" : {
        "type" : "Point",
        "coordinates" : [
          -91.014222999999959,
          42.298488000000077
        ]
      },
      "properties" : {
        "OBJECTID" : 15,
        "name" : "Cascade Opera House: Cascade, IA",
        "latitude" : 42.298487999999999,
        "longitude" : -91.014223000000001,
        "time" : -2081376000000
      }
    },
    {
      "type" : "Feature",
      "id" : 16,
      "geometry" : {
        "type" : "Point",
        "coordinates" : [
          -91.014222999999959,
          42.298488000000077
        ]
      },
      "properties" : {
        "OBJECTID" : 16,
        "name" : "Cascade Opera House: Cascade, IA",
        "latitude" : 42.298487999999999,
        "longitude" : -91.014223000000001,
        "time" : -2081289600000
      }
    },
    {
      "type" : "Feature",
      "id" : 17,
      "geometry" : {
        "type" : "Point",
        "coordinates" : [
          -91.014222999999959,
          42.298488000000077
        ]
      },
      "properties" : {
        "OBJECTID" : 17,
        "name" : "Cascade Opera House: Cascade, IA",
        "latitude" : 42.298487999999999,
        "longitude" : -91.014223000000001,
        "time" : -2081203200000
      }
    },
    {
      "type" : "Feature",
      "id" : 18,
      "geometry" : {
        "type" : "Point",
        "coordinates" : [
          -91.558072999999979,
          40.96369500000003
        ]
      },
      "properties" : {
        "OBJECTID" : 18,
        "name" : "Mount Pleasant, IA",
        "latitude" : 40.963695000000001,
        "longitude" : -91.558072999999993,
        "time" : -2081203200000
      }
    },
    {
      "type" : "Feature",
      "id" : 19,
      "geometry" : {
        "type" : "Point",
        "coordinates" : [
          -91.455424999999991,
          42.484154000000046
        ]
      },
      "properties" : {
        "OBJECTID" : 19,
        "name" : "Central Opera House: Manchester, IA",
        "latitude" : 42.484153999999997,
        "longitude" : -91.455425000000005,
        "time" : -2081116800000
      }
    },
    {
      "type" : "Feature",
      "id" : 20,
      "geometry" : {
        "type" : "Point",
        "coordinates" : [
          -91.455424999999991,
          42.484154000000046
        ]
      },
      "properties" : {
        "OBJECTID" : 20,
        "name" : "Central Opera House: Manchester, IA",
        "latitude" : 42.484153999999997,
        "longitude" : -91.455425000000005,
        "time" : -2081030400000
      }
    },
    {
      "type" : "Feature",
      "id" : 21,
      "geometry" : {
        "type" : "Point",
        "coordinates" : [
          -91.455424999999991,
          42.484154000000046
        ]
      },
      "properties" : {
        "OBJECTID" : 21,
        "name" : "Central Opera House: Manchester, IA",
        "latitude" : 42.484153999999997,
        "longitude" : -91.455425000000005,
        "time" : -2080944000000
      }
    },
    {
      "type" : "Feature",
      "id" : 22,
      "geometry" : {
        "type" : "Point",
        "coordinates" : [
          -91.455424999999991,
          42.484154000000046
        ]
      },
      "properties" : {
        "OBJECTID" : 22,
        "name" : "Central Opera House: Manchester, IA",
        "latitude" : 42.484153999999997,
        "longitude" : -91.455425000000005,
        "time" : -2080944000000
      }
    },
    {
      "type" : "Feature",
      "id" : 23,
      "geometry" : {
        "type" : "Point",
        "coordinates" : [
          -92.912338999999974,
          42.044255000000078
        ]
      },
      "properties" : {
        "OBJECTID" : 23,
        "name" : "Odeon Theatre: Marshalltown, IA",
        "latitude" : 42.044255,
        "longitude" : -92.912339000000003,
        "time" : -2080771200000
      }
    },
    {
      "type" : "Feature",
      "id" : 24,
      "geometry" : {
        "type" : "Point",
        "coordinates" : [
          -92.912338999999974,
          42.044255000000078
        ]
      },
      "properties" : {
        "OBJECTID" : 24,
        "name" : "Odeon Theatre: Marshalltown, IA",
        "latitude" : 42.044255,
        "longitude" : -92.912339000000003,
        "time" : -2080684800000
      }
    },
    {
      "type" : "Feature",
      "id" : 25,
      "geometry" : {
        "type" : "Point",
        "coordinates" : [
          -92.912338999999974,
          42.044255000000078
        ]
      },
      "properties" : {
        "OBJECTID" : 25,
        "name" : "Odeon Theatre: Marshalltown, IA",
        "latitude" : 42.044255,
        "longitude" : -92.912339000000003,
        "time" : -2080598400000
      }
    },
    {
      "type" : "Feature",
      "id" : 26,
      "geometry" : {
        "type" : "Point",
        "coordinates" : [
          -91.52991099999997,
          41.661256000000037
        ]
      },
      "properties" : {
        "OBJECTID" : 26,
        "name" : "Coldren Opera House: Iowa City, IA",
        "latitude" : 41.661256000000002,
        "longitude" : -91.529910999999998,
        "time" : -2080512000000
      }
    },
    {
      "type" : "Feature",
      "id" : 27,
      "geometry" : {
        "type" : "Point",
        "coordinates" : [
          -91.52991099999997,
          41.661256000000037
        ]
      },
      "properties" : {
        "OBJECTID" : 27,
        "name" : "Coldren Opera House: Iowa City, IA",
        "latitude" : 41.661256000000002,
        "longitude" : -91.529910999999998,
        "time" : -2080425600000
      }
    },
    {
      "type" : "Feature",
      "id" : 28,
      "geometry" : {
        "type" : "Point",
        "coordinates" : [
          -91.52991099999997,
          41.661256000000037
        ]
      },
      "properties" : {
        "OBJECTID" : 28,
        "name" : "Coldren Opera House: Iowa City, IA",
        "latitude" : 41.661256000000002,
        "longitude" : -91.529910999999998,
        "time" : -2080339200000
      }
    },
    {
      "type" : "Feature",
      "id" : 29,
      "geometry" : {
        "type" : "Point",
        "coordinates" : [
          -91.52991099999997,
          41.661256000000037
        ]
      },
      "properties" : {
        "OBJECTID" : 29,
        "name" : "Coldren Opera House: Iowa City, IA",
        "latitude" : 41.661256000000002,
        "longitude" : -91.529910999999998,
        "time" : -2080252800000
      }
    },
    {
      "type" : "Feature",
      "id" : 30,
      "geometry" : {
        "type" : "Point",
        "coordinates" : [
          -91.345972999999958,
          41.672074000000066
        ]
      },
      "properties" : {
        "OBJECTID" : 30,
        "name" : "Macomber Opera House: West Branch, IA",
        "latitude" : 41.672074000000002,
        "longitude" : -91.345973000000001,
        "time" : -2080080000000
      }
    },
    {
      "type" : "Feature",
      "id" : 31,
      "geometry" : {
        "type" : "Point",
        "coordinates" : [
          -91.345972999999958,
          41.672074000000066
        ]
      },
      "properties" : {
        "OBJECTID" : 31,
        "name" : "Macomber Opera House: West Branch, IA",
        "latitude" : 41.672074000000002,
        "longitude" : -91.345973000000001,
        "time" : -2079993600000
      }
    },
    {
      "type" : "Feature",
      "id" : 32,
      "geometry" : {
        "type" : "Point",
        "coordinates" : [
          -91.127934999999979,
          41.769743000000062
        ]
      },
      "properties" : {
        "OBJECTID" : 32,
        "name" : "Tipton Opera House: Tipton, IA",
        "latitude" : 41.769742999999998,
        "longitude" : -91.127934999999994,
        "time" : -2079907200000
      }
    },
    {
      "type" : "Feature",
      "id" : 33,
      "geometry" : {
        "type" : "Point",
        "coordinates" : [
          -91.127934999999979,
          41.769743000000062
        ]
      },
      "properties" : {
        "OBJECTID" : 33,
        "name" : "Tipton Opera House: Tipton, IA",
        "latitude" : 41.769742999999998,
        "longitude" : -91.127934999999994,
        "time" : -2079820800000
      }
    },
    {
      "type" : "Feature",
      "id" : 34,
      "geometry" : {
        "type" : "Point",
        "coordinates" : [
          -91.127934999999979,
          41.769743000000062
        ]
      },
      "properties" : {
        "OBJECTID" : 34,
        "name" : "Tipton Opera House: Tipton, IA",
        "latitude" : 41.769742999999998,
        "longitude" : -91.127934999999994,
        "time" : -2079734400000
      }
    },
    {
      "type" : "Feature",
      "id" : 35,
      "geometry" : {
        "type" : "Point",
        "coordinates" : [
          -91.285158999999965,
          42.108337000000063
        ]
      },
      "properties" : {
        "OBJECTID" : 35,
        "name" : "Grand Opera House: Anamosa, IA",
        "latitude" : 42.108336999999999,
        "longitude" : -91.285158999999993,
        "time" : -2079561600000
      }
    },
    {
      "type" : "Feature",
      "id" : 36,
      "geometry" : {
        "type" : "Point",
        "coordinates" : [
          -91.285158999999965,
          42.108337000000063
        ]
      },
      "properties" : {
        "OBJECTID" : 36,
        "name" : "Grand Opera House: Anamosa, IA",
        "latitude" : 42.108336999999999,
        "longitude" : -91.285158999999993,
        "time" : -2079475200000
      }
    },
    {
      "type" : "Feature",
      "id" : 37,
      "geometry" : {
        "type" : "Point",
        "coordinates" : [
          -91.285158999999965,
          42.108337000000063
        ]
      },
      "properties" : {
        "OBJECTID" : 37,
        "name" : "Grand Opera House: Anamosa, IA",
        "latitude" : 42.108336999999999,
        "longitude" : -91.285158999999993,
        "time" : -2079388800000
      }
    },
    {
      "type" : "Feature",
      "id" : 38,
      "geometry" : {
        "type" : "Point",
        "coordinates" : [
          -93.226107999999954,
          44.083994000000075
        ]
      },
      "properties" : {
        "OBJECTID" : 38,
        "name" : "Metropolitan Opera House: Owatonna, MN",
        "latitude" : 44.083993999999997,
        "longitude" : -93.226107999999996,
        "time" : -2079302400000
      }
    },
    {
      "type" : "Feature",
      "id" : 39,
      "geometry" : {
        "type" : "Point",
        "coordinates" : [
          -93.226107999999954,
          44.083994000000075
        ]
      },
      "properties" : {
        "OBJECTID" : 39,
        "name" : "Metropolitan Opera House: Owatonna, MN",
        "latitude" : 44.083993999999997,
        "longitude" : -93.226107999999996,
        "time" : -2079216000000
      }
    },
    {
      "type" : "Feature",
      "id" : 40,
      "geometry" : {
        "type" : "Point",
        "coordinates" : [
          -93.226107999999954,
          44.083994000000075
        ]
      },
      "properties" : {
        "OBJECTID" : 40,
        "name" : "Metropolitan Opera House: Owatonna, MN",
        "latitude" : 44.083993999999997,
        "longitude" : -93.226107999999996,
        "time" : -2079129600000
      }
    },
    {
      "type" : "Feature",
      "id" : 41,
      "geometry" : {
        "type" : "Point",
        "coordinates" : [
          -93.290259999999989,
          44.296188000000029
        ]
      },
      "properties" : {
        "OBJECTID" : 41,
        "name" : "Grand Opera House: Faribault, MN",
        "latitude" : 44.296188000000001,
        "longitude" : -93.290260000000004,
        "time" : -2078956800000
      }
    },
    {
      "type" : "Feature",
      "id" : 42,
      "geometry" : {
        "type" : "Point",
        "coordinates" : [
          -93.290259999999989,
          44.296188000000029
        ]
      },
      "properties" : {
        "OBJECTID" : 42,
        "name" : "Grand Opera House: Faribault, MN",
        "latitude" : 44.296188000000001,
        "longitude" : -93.290260000000004,
        "time" : -2078870400000
      }
    },
    {
      "type" : "Feature",
      "id" : 43,
      "geometry" : {
        "type" : "Point",
        "coordinates" : [
          -93.290259999999989,
          44.296188000000029
        ]
      },
      "properties" : {
        "OBJECTID" : 43,
        "name" : "Grand Opera House: Faribault, MN",
        "latitude" : 44.296188000000001,
        "longitude" : -93.290260000000004,
        "time" : -2078784000000
      }
    },
    {
      "type" : "Feature",
      "id" : 44,
      "geometry" : {
        "type" : "Point",
        "coordinates" : [
          -93.588571999999942,
          44.017224000000056
        ]
      },
      "properties" : {
        "OBJECTID" : 44,
        "name" : "Ward Opera House: Waseca, MN",
        "latitude" : 44.017223999999999,
        "longitude" : -93.588571999999999,
        "time" : -2078697600000
      }
    },
    {
      "type" : "Feature",
      "id" : 45,
      "geometry" : {
        "type" : "Point",
        "coordinates" : [
          -93.588571999999942,
          44.017224000000056
        ]
      },
      "properties" : {
        "OBJECTID" : 45,
        "name" : "Ward Opera House: Waseca, MN",
        "latitude" : 44.017223999999999,
        "longitude" : -93.588571999999999,
        "time" : -2078611200000
      }
    },
    {
      "type" : "Feature",
      "id" : 46,
      "geometry" : {
        "type" : "Point",
        "coordinates" : [
          -93.588571999999942,
          44.017224000000056
        ]
      },
      "properties" : {
        "OBJECTID" : 46,
        "name" : "Ward Opera House: Waseca, MN",
        "latitude" : 44.017223999999999,
        "longitude" : -93.588571999999999,
        "time" : -2078524800000
      }
    },
    {
      "type" : "Feature",
      "id" : 47,
      "geometry" : {
        "type" : "Point",
        "coordinates" : [
          -93.567969999999946,
          44.218991000000074
        ]
      },
      "properties" : {
        "OBJECTID" : 47,
        "name" : "Waterville, MN",
        "latitude" : 44.218991000000003,
        "longitude" : -93.567970000000003,
        "time" : -2078352000000
      }
    },
    {
      "type" : "Feature",
      "id" : 48,
      "geometry" : {
        "type" : "Point",
        "coordinates" : [
          -93.567969999999946,
          44.218991000000074
        ]
      },
      "properties" : {
        "OBJECTID" : 48,
        "name" : "Waterville, MN",
        "latitude" : 44.218991000000003,
        "longitude" : -93.567970000000003,
        "time" : -2078265600000
      }
    },
    {
      "type" : "Feature",
      "id" : 49,
      "geometry" : {
        "type" : "Point",
        "coordinates" : [
          -93.567969999999946,
          44.218991000000074
        ]
      },
      "properties" : {
        "OBJECTID" : 49,
        "name" : "Waterville, MN",
        "latitude" : 44.218991000000003,
        "longitude" : -93.567970000000003,
        "time" : -2078179200000
      }
    },
    {
      "type" : "Feature",
      "id" : 50,
      "geometry" : {
        "type" : "Point",
        "coordinates" : [
          -94.451854999999966,
          44.282120000000077
        ]
      },
      "properties" : {
        "OBJECTID" : 50,
        "name" : "Turner Opera House: New Ulm, MN",
        "latitude" : 44.282119999999999,
        "longitude" : -94.451854999999995,
        "time" : -2078092800000
      }
    },
    {
      "type" : "Feature",
      "id" : 51,
      "geometry" : {
        "type" : "Point",
        "coordinates" : [
          -94.451854999999966,
          44.282120000000077
        ]
      },
      "properties" : {
        "OBJECTID" : 51,
        "name" : "Turner Opera House: New Ulm, MN",
        "latitude" : 44.282119999999999,
        "longitude" : -94.451854999999995,
        "time" : -2078006400000
      }
    },
    {
      "type" : "Feature",
      "id" : 52,
      "geometry" : {
        "type" : "Point",
        "coordinates" : [
          -94.451854999999966,
          44.282120000000077
        ]
      },
      "properties" : {
        "OBJECTID" : 52,
        "name" : "Turner Opera House: New Ulm, MN",
        "latitude" : 44.282119999999999,
        "longitude" : -94.451854999999995,
        "time" : -2077920000000
      }
    },
    {
      "type" : "Feature",
      "id" : 53,
      "geometry" : {
        "type" : "Point",
        "coordinates" : [
          -93.958528999999942,
          44.32383800000008
        ]
      },
      "properties" : {
        "OBJECTID" : 53,
        "name" : "Rost's Hall: Saint Peter, MN",
        "latitude" : 44.323838000000002,
        "longitude" : -93.958528999999999,
        "time" : -2077747200000
      }
    },
    {
      "type" : "Feature",
      "id" : 54,
      "geometry" : {
        "type" : "Point",
        "coordinates" : [
          -93.958528999999942,
          44.32383800000008
        ]
      },
      "properties" : {
        "OBJECTID" : 54,
        "name" : "Rost's Hall: Saint Peter, MN",
        "latitude" : 44.323838000000002,
        "longitude" : -93.958528999999999,
        "time" : -2077660800000
      }
    },
    {
      "type" : "Feature",
      "id" : 55,
      "geometry" : {
        "type" : "Point",
        "coordinates" : [
          -93.958528999999942,
          44.32383800000008
        ]
      },
      "properties" : {
        "OBJECTID" : 55,
        "name" : "Rost's Hall: Saint Peter, MN",
        "latitude" : 44.323838000000002,
        "longitude" : -93.958528999999999,
        "time" : -2077574400000
      }
    },
    {
      "type" : "Feature",
      "id" : 56,
      "geometry" : {
        "type" : "Point",
        "coordinates" : [
          -92.463020999999969,
          44.023327000000052
        ]
      },
      "properties" : {
        "OBJECTID" : 56,
        "name" : "Rochester, MN",
        "latitude" : 44.023327000000002,
        "longitude" : -92.463020999999998,
        "time" : -2077488000000
      }
    },
    {
      "type" : "Feature",
      "id" : 57,
      "geometry" : {
        "type" : "Point",
        "coordinates" : [
          -92.463020999999969,
          44.023327000000052
        ]
      },
      "properties" : {
        "OBJECTID" : 57,
        "name" : "Rochester, MN",
        "latitude" : 44.023327000000002,
        "longitude" : -92.463020999999998,
        "time" : -2077401600000
      }
    },
    {
      "type" : "Feature",
      "id" : 58,
      "geometry" : {
        "type" : "Point",
        "coordinates" : [
          -92.463020999999969,
          44.023327000000052
        ]
      },
      "properties" : {
        "OBJECTID" : 58,
        "name" : "Rochester, MN",
        "latitude" : 44.023327000000002,
        "longitude" : -92.463020999999998,
        "time" : -2077315200000
      }
    },
    {
      "type" : "Feature",
      "id" : 59,
      "geometry" : {
        "type" : "Point",
        "coordinates" : [
          -92.065981999999963,
          43.969361000000049
        ]
      },
      "properties" : {
        "OBJECTID" : 59,
        "name" : "Saint Charles, MN",
        "latitude" : 43.969360999999999,
        "longitude" : -92.065982000000005,
        "time" : -2077142400000
      }
    },
    {
      "type" : "Feature",
      "id" : 60,
      "geometry" : {
        "type" : "Point",
        "coordinates" : [
          -92.065981999999963,
          43.969361000000049
        ]
      },
      "properties" : {
        "OBJECTID" : 60,
        "name" : "Saint Charles, MN",
        "latitude" : 43.969360999999999,
        "longitude" : -92.065982000000005,
        "time" : -2077056000000
      }
    },
    {
      "type" : "Feature",
      "id" : 61,
      "geometry" : {
        "type" : "Point",
        "coordinates" : [
          -92.065981999999963,
          43.969361000000049
        ]
      },
      "properties" : {
        "OBJECTID" : 61,
        "name" : "Saint Charles, MN",
        "latitude" : 43.969360999999999,
        "longitude" : -92.065982000000005,
        "time" : -2076969600000
      }
    },
    {
      "type" : "Feature",
      "id" : 62,
      "geometry" : {
        "type" : "Point",
        "coordinates" : [
          -91.639228999999943,
          44.050005000000056
        ]
      },
      "properties" : {
        "OBJECTID" : 62,
        "name" : "Winona, MN",
        "latitude" : 44.050004999999999,
        "longitude" : -91.639229,
        "time" : -2076883200000
      }
    },
    {
      "type" : "Feature",
      "id" : 63,
      "geometry" : {
        "type" : "Point",
        "coordinates" : [
          -91.639228999999943,
          44.050005000000056
        ]
      },
      "properties" : {
        "OBJECTID" : 63,
        "name" : "Winona, MN",
        "latitude" : 44.050004999999999,
        "longitude" : -91.639229,
        "time" : -2076796800000
      }
    },
    {
      "type" : "Feature",
      "id" : 64,
      "geometry" : {
        "type" : "Point",
        "coordinates" : [
          -91.639228999999943,
          44.050005000000056
        ]
      },
      "properties" : {
        "OBJECTID" : 64,
        "name" : "Winona, MN",
        "latitude" : 44.050004999999999,
        "longitude" : -91.639229,
        "time" : -2076710400000
      }
    },
    {
      "type" : "Feature",
      "id" : 65,
      "geometry" : {
        "type" : "Point",
        "coordinates" : [
          -92.188090999999986,
          43.844630000000052
        ]
      },
      "properties" : {
        "OBJECTID" : 65,
        "name" : "Chatfield, MN",
        "latitude" : 43.844630000000002,
        "longitude" : -92.188091,
        "time" : -2076537600000
      }
    },
    {
      "type" : "Feature",
      "id" : 66,
      "geometry" : {
        "type" : "Point",
        "coordinates" : [
          -91.639228999999943,
          44.050005000000056
        ]
      },
      "properties" : {
        "OBJECTID" : 66,
        "name" : "Winona, MN",
        "latitude" : 44.050004999999999,
        "longitude" : -91.639229,
        "time" : -2076451200000
      }
    },
    {
      "type" : "Feature",
      "id" : 67,
      "geometry" : {
        "type" : "Point",
        "coordinates" : [
          -92.188090999999986,
          43.844630000000052
        ]
      },
      "properties" : {
        "OBJECTID" : 67,
        "name" : "Chatfield, MN",
        "latitude" : 43.844630000000002,
        "longitude" : -92.188091,
        "time" : -2076364800000
      }
    },
    {
      "type" : "Feature",
      "id" : 68,
      "geometry" : {
        "type" : "Point",
        "coordinates" : [
          -92.188090999999986,
          43.844630000000052
        ]
      },
      "properties" : {
        "OBJECTID" : 68,
        "name" : "Chatfield, MN",
        "latitude" : 43.844630000000002,
        "longitude" : -92.188091,
        "time" : -2076278400000
      }
    },
    {
      "type" : "Feature",
      "id" : 69,
      "geometry" : {
        "type" : "Point",
        "coordinates" : [
          -91.639228999999943,
          44.050005000000056
        ]
      },
      "properties" : {
        "OBJECTID" : 69,
        "name" : "Winona, MN",
        "latitude" : 44.050004999999999,
        "longitude" : -91.639229,
        "time" : -2076192000000
      }
    },
    {
      "type" : "Feature",
      "id" : 70,
      "geometry" : {
        "type" : "Point",
        "coordinates" : [
          -92.463020999999969,
          44.023327000000052
        ]
      },
      "properties" : {
        "OBJECTID" : 70,
        "name" : "Rochester, MN",
        "latitude" : 44.023327000000002,
        "longitude" : -92.463020999999998,
        "time" : -2076105600000
      }
    },
    {
      "type" : "Feature",
      "id" : 71,
      "geometry" : {
        "type" : "Point",
        "coordinates" : [
          -93.588571999999942,
          44.017224000000056
        ]
      },
      "properties" : {
        "OBJECTID" : 71,
        "name" : "Ward Opera House: Waseca, MN",
        "latitude" : 44.017223999999999,
        "longitude" : -93.588571999999999,
        "time" : -2075932800000
      }
    },
    {
      "type" : "Feature",
      "id" : 72,
      "geometry" : {
        "type" : "Point",
        "coordinates" : [
          -93.226107999999954,
          44.083994000000075
        ]
      },
      "properties" : {
        "OBJECTID" : 72,
        "name" : "Metropolitan Opera House: Owatonna, MN",
        "latitude" : 44.083993999999997,
        "longitude" : -93.226107999999996,
        "time" : -2075846400000
      }
    },
    {
      "type" : "Feature",
      "id" : 73,
      "geometry" : {
        "type" : "Point",
        "coordinates" : [
          -93.290259999999989,
          44.296188000000029
        ]
      },
      "properties" : {
        "OBJECTID" : 73,
        "name" : "Grand Opera House: Faribault, MN",
        "latitude" : 44.296188000000001,
        "longitude" : -93.290260000000004,
        "time" : -2075760000000
      }
    },
    {
      "type" : "Feature",
      "id" : 74,
      "geometry" : {
        "type" : "Point",
        "coordinates" : [
          -93.999349999999936,
          44.163466000000028
        ]
      },
      "properties" : {
        "OBJECTID" : 74,
        "name" : "Mankato Theatre: Mankato, MN",
        "latitude" : 44.163466,
        "longitude" : -93.999350000000007,
        "time" : -2075673600000
      }
    },
    {
      "type" : "Feature",
      "id" : 75,
      "geometry" : {
        "type" : "Point",
        "coordinates" : [
          -93.999349999999936,
          44.163466000000028
        ]
      },
      "properties" : {
        "OBJECTID" : 75,
        "name" : "Mankato Theatre: Mankato, MN",
        "latitude" : 44.163466,
        "longitude" : -93.999350000000007,
        "time" : -2075587200000
      }
    },
    {
      "type" : "Feature",
      "id" : 76,
      "geometry" : {
        "type" : "Point",
        "coordinates" : [
          -93.999349999999936,
          44.163466000000028
        ]
      },
      "properties" : {
        "OBJECTID" : 76,
        "name" : "Mankato Theatre: Mankato, MN",
        "latitude" : 44.163466,
        "longitude" : -93.999350000000007,
        "time" : -2075500800000
      }
    },
    {
      "type" : "Feature",
      "id" : 77,
      "geometry" : {
        "type" : "Point",
        "coordinates" : [
          -93.567969999999946,
          44.218991000000074
        ]
      },
      "properties" : {
        "OBJECTID" : 77,
        "name" : "Waterville, MN",
        "latitude" : 44.218991000000003,
        "longitude" : -93.567970000000003,
        "time" : -2075328000000
      }
    },
    {
      "type" : "Feature",
      "id" : 78,
      "geometry" : {
        "type" : "Point",
        "coordinates" : [
          -93.958528999999942,
          44.32383800000008
        ]
      },
      "properties" : {
        "OBJECTID" : 78,
        "name" : "Rost's Hall: Saint Peter, MN",
        "latitude" : 44.323838000000002,
        "longitude" : -93.958528999999999,
        "time" : -2075241600000
      }
    },
    {
      "type" : "Feature",
      "id" : 79,
      "geometry" : {
        "type" : "Point",
        "coordinates" : [
          -93.958528999999942,
          44.32383800000008
        ]
      },
      "properties" : {
        "OBJECTID" : 79,
        "name" : "Rost's Hall: Saint Peter, MN",
        "latitude" : 44.323838000000002,
        "longitude" : -93.958528999999999,
        "time" : -2075155200000
      }
    },
    {
      "type" : "Feature",
      "id" : 80,
      "geometry" : {
        "type" : "Point",
        "coordinates" : [
          -93.728835999999944,
          43.746066000000042
        ]
      },
      "properties" : {
        "OBJECTID" : 80,
        "name" : "G.A.R. Hall: Wells, MN",
        "latitude" : 43.746065999999999,
        "longitude" : -93.728836000000001,
        "time" : -2075068800000
      }
    },
    {
      "type" : "Feature",
      "id" : 81,
      "geometry" : {
        "type" : "Point",
        "coordinates" : [
          -93.728835999999944,
          43.746066000000042
        ]
      },
      "properties" : {
        "OBJECTID" : 81,
        "name" : "G.A.R. Hall: Wells, MN",
        "latitude" : 43.746065999999999,
        "longitude" : -93.728836000000001,
        "time" : -2074982400000
      }
    },
    {
      "type" : "Feature",
      "id" : 82,
      "geometry" : {
        "type" : "Point",
        "coordinates" : [
          -93.728835999999944,
          43.746066000000042
        ]
      },
      "properties" : {
        "OBJECTID" : 82,
        "name" : "G.A.R. Hall: Wells, MN",
        "latitude" : 43.746065999999999,
        "longitude" : -93.728836000000001,
        "time" : -2074896000000
      }
    },
    {
      "type" : "Feature",
      "id" : 83,
      "geometry" : {
        "type" : "Point",
        "coordinates" : [
          -92.672410999999954,
          43.066361000000029
        ]
      },
      "properties" : {
        "OBJECTID" : 83,
        "name" : "Hildreth Opera House: Charles City, IA",
        "latitude" : 43.066361000000001,
        "longitude" : -92.672410999999997,
        "time" : -2074723200000
      }
    },
    {
      "type" : "Feature",
      "id" : 84,
      "geometry" : {
        "type" : "Point",
        "coordinates" : [
          -92.672410999999954,
          43.066361000000029
        ]
      },
      "properties" : {
        "OBJECTID" : 84,
        "name" : "Hildreth Opera House: Charles City, IA",
        "latitude" : 43.066361000000001,
        "longitude" : -92.672410999999997,
        "time" : -2074636800000
      }
    },
    {
      "type" : "Feature",
      "id" : 85,
      "geometry" : {
        "type" : "Point",
        "coordinates" : [
          -92.672410999999954,
          43.066361000000029
        ]
      },
      "properties" : {
        "OBJECTID" : 85,
        "name" : "Hildreth Opera House: Charles City, IA",
        "latitude" : 43.066361000000001,
        "longitude" : -92.672410999999997,
        "time" : -2074550400000
      }
    },
    {
      "type" : "Feature",
      "id" : 86,
      "geometry" : {
        "type" : "Point",
        "coordinates" : [
          -92.475462999999991,
          42.725814000000071
        ]
      },
      "properties" : {
        "OBJECTID" : 86,
        "name" : "Waverly Opera House: Waverly, IA",
        "latitude" : 42.725814,
        "longitude" : -92.475463000000005,
        "time" : -2074464000000
      }
    },
    {
      "type" : "Feature",
      "id" : 87,
      "geometry" : {
        "type" : "Point",
        "coordinates" : [
          -92.475462999999991,
          42.725814000000071
        ]
      },
      "properties" : {
        "OBJECTID" : 87,
        "name" : "Waverly Opera House: Waverly, IA",
        "latitude" : 42.725814,
        "longitude" : -92.475463000000005,
        "time" : -2074377600000
      }
    },
    {
      "type" : "Feature",
      "id" : 88,
      "geometry" : {
        "type" : "Point",
        "coordinates" : [
          -92.475462999999991,
          42.725814000000071
        ]
      },
      "properties" : {
        "OBJECTID" : 88,
        "name" : "Waverly Opera House: Waverly, IA",
        "latitude" : 42.725814,
        "longitude" : -92.475463000000005,
        "time" : -2074291200000
      }
    },
    {
      "type" : "Feature",
      "id" : 89,
      "geometry" : {
        "type" : "Point",
        "coordinates" : [
          -93.202272999999991,
          42.742009000000053
        ]
      },
      "properties" : {
        "OBJECTID" : 89,
        "name" : "Harriman Opera House: Hampton, IA",
        "latitude" : 42.742009000000003,
        "longitude" : -93.202273000000005,
        "time" : -2074118400000
      }
    },
    {
      "type" : "Feature",
      "id" : 90,
      "geometry" : {
        "type" : "Point",
        "coordinates" : [
          -93.202272999999991,
          42.742009000000053
        ]
      },
      "properties" : {
        "OBJECTID" : 90,
        "name" : "Harriman Opera House: Hampton, IA",
        "latitude" : 42.742009000000003,
        "longitude" : -93.202273000000005,
        "time" : -2074032000000
      }
    },
    {
      "type" : "Feature",
      "id" : 91,
      "geometry" : {
        "type" : "Point",
        "coordinates" : [
          -93.202272999999991,
          42.742009000000053
        ]
      },
      "properties" : {
        "OBJECTID" : 91,
        "name" : "Harriman Opera House: Hampton, IA",
        "latitude" : 42.742009000000003,
        "longitude" : -93.202273000000005,
        "time" : -2073945600000
      }
    },
    {
      "type" : "Feature",
      "id" : 92,
      "geometry" : {
        "type" : "Point",
        "coordinates" : [
          -93.215191999999945,
          42.893517000000031
        ]
      },
      "properties" : {
        "OBJECTID" : 92,
        "name" : "Town Hall: Sheffield, IA",
        "latitude" : 42.893517000000003,
        "longitude" : -93.215192000000002,
        "time" : -2073859200000
      }
    },
    {
      "type" : "Feature",
      "id" : 93,
      "geometry" : {
        "type" : "Point",
        "coordinates" : [
          -93.222145999999952,
          42.833581000000038
        ]
      },
      "properties" : {
        "OBJECTID" : 93,
        "name" : "Chapin, IA",
        "latitude" : 42.833581000000002,
        "longitude" : -93.222145999999995,
        "time" : -2073772800000
      }
    },
    {
      "type" : "Feature",
      "id" : 94,
      "geometry" : {
        "type" : "Point",
        "coordinates" : [
          -93.215191999999945,
          42.893517000000031
        ]
      },
      "properties" : {
        "OBJECTID" : 94,
        "name" : "Town Hall: Sheffield, IA",
        "latitude" : 42.893517000000003,
        "longitude" : -93.215192000000002,
        "time" : -2073686400000
      }
    },
    {
      "type" : "Feature",
      "id" : 95,
      "geometry" : {
        "type" : "Point",
        "coordinates" : [
          -93.904389999999978,
          42.664138000000037
        ]
      },
      "properties" : {
        "OBJECTID" : 95,
        "name" : "Eagle Grove Opera House: Eagle Grove, IA",
        "latitude" : 42.664138000000001,
        "longitude" : -93.904390000000006,
        "time" : -2073513600000
      }
    },
    {
      "type" : "Feature",
      "id" : 96,
      "geometry" : {
        "type" : "Point",
        "coordinates" : [
          -93.904389999999978,
          42.664138000000037
        ]
      },
      "properties" : {
        "OBJECTID" : 96,
        "name" : "Eagle Grove Opera House: Eagle Grove, IA",
        "latitude" : 42.664138000000001,
        "longitude" : -93.904390000000006,
        "time" : -2073427200000
      }
    },
    {
      "type" : "Feature",
      "id" : 97,
      "geometry" : {
        "type" : "Point",
        "coordinates" : [
          -93.904389999999978,
          42.664138000000037
        ]
      },
      "properties" : {
        "OBJECTID" : 97,
        "name" : "Eagle Grove Opera House: Eagle Grove, IA",
        "latitude" : 42.664138000000001,
        "longitude" : -93.904390000000006,
        "time" : -2073340800000
      }
    },
    {
      "type" : "Feature",
      "id" : 98,
      "geometry" : {
        "type" : "Point",
        "coordinates" : [
          -93.732207999999957,
          42.731339000000048
        ]
      },
      "properties" : {
        "OBJECTID" : 98,
        "name" : "Brown Opera House: Clarion, IA",
        "latitude" : 42.731338999999998,
        "longitude" : -93.732208,
        "time" : -2073254400000
      }
    },
    {
      "type" : "Feature",
      "id" : 99,
      "geometry" : {
        "type" : "Point",
        "coordinates" : [
          -93.732207999999957,
          42.731339000000048
        ]
      },
      "properties" : {
        "OBJECTID" : 99,
        "name" : "Brown Opera House: Clarion, IA",
        "latitude" : 42.731338999999998,
        "longitude" : -93.732208,
        "time" : -2073168000000
      }
    },
    {
      "type" : "Feature",
      "id" : 100,
      "geometry" : {
        "type" : "Point",
        "coordinates" : [
          -93.732207999999957,
          42.731339000000048
        ]
      },
      "properties" : {
        "OBJECTID" : 100,
        "name" : "Brown Opera House: Clarion, IA",
        "latitude" : 42.731338999999998,
        "longitude" : -93.732208,
        "time" : -2073081600000
      }
    },
    {
      "type" : "Feature",
      "id" : 101,
      "geometry" : {
        "type" : "Point",
        "coordinates" : [
          -93.201036999999985,
          43.153573000000051
        ]
      },
      "properties" : {
        "OBJECTID" : 101,
        "name" : "Wilson Opera House: Mason City, IA",
        "latitude" : 43.153573000000002,
        "longitude" : -93.201036999999999,
        "time" : -2072908800000
      }
    },
    {
      "type" : "Feature",
      "id" : 102,
      "geometry" : {
        "type" : "Point",
        "coordinates" : [
          -93.201036999999985,
          43.153573000000051
        ]
      },
      "properties" : {
        "OBJECTID" : 102,
        "name" : "Wilson Opera House: Mason City, IA",
        "latitude" : 43.153573000000002,
        "longitude" : -93.201036999999999,
        "time" : -2072822400000
      }
    },
    {
      "type" : "Feature",
      "id" : 103,
      "geometry" : {
        "type" : "Point",
        "coordinates" : [
          -93.201036999999985,
          43.153573000000051
        ]
      },
      "properties" : {
        "OBJECTID" : 103,
        "name" : "Wilson Opera House: Mason City, IA",
        "latitude" : 43.153573000000002,
        "longitude" : -93.201036999999999,
        "time" : -2072736000000
      }
    },
    {
      "type" : "Feature",
      "id" : 104,
      "geometry" : {
        "type" : "Point",
        "coordinates" : [
          -91.734032999999954,
          41.316008000000068
        ]
      },
      "properties" : {
        "OBJECTID" : 104,
        "name" : "Graham Opera House: Washington, IA",
        "latitude" : 41.316007999999997,
        "longitude" : -91.734032999999997,
        "time" : -2071612800000
      }
    },
    {
      "type" : "Feature",
      "id" : 105,
      "geometry" : {
        "type" : "Point",
        "coordinates" : [
          -91.552383999999961,
          41.288910000000044
        ]
      },
      "properties" : {
        "OBJECTID" : 105,
        "name" : "Ainsworth Opera House: Ainsworth, IA",
        "latitude" : 41.288910000000001,
        "longitude" : -91.552384000000004,
        "time" : -2070662400000
      }
    },
    {
      "type" : "Feature",
      "id" : 106,
      "geometry" : {
        "type" : "Point",
        "coordinates" : [
          -91.661306999999965,
          41.147783000000061
        ]
      },
      "properties" : {
        "OBJECTID" : 106,
        "name" : "Wayland, IA",
        "latitude" : 41.147782999999997,
        "longitude" : -91.661306999999994,
        "time" : -2070057600000
      }
    },
    {
      "type" : "Feature",
      "id" : 107,
      "geometry" : {
        "type" : "Point",
        "coordinates" : [
          -91.714485999999965,
          41.475053000000059
        ]
      },
      "properties" : {
        "OBJECTID" : 107,
        "name" : "Kalona Opera House: Kalona, IA",
        "latitude" : 41.475053000000003,
        "longitude" : -91.714485999999994,
        "time" : -2069452800000
      }
    },
    {
      "type" : "Feature",
      "id" : 108,
      "geometry" : {
        "type" : "Point",
        "coordinates" : [
          -91.538750999999991,
          41.21538600000008
        ]
      },
      "properties" : {
        "OBJECTID" : 108,
        "name" : "Crawfordsville Town Hall: Crawfordsville, IA",
        "latitude" : 41.215386000000002,
        "longitude" : -91.538751000000005,
        "time" : -2068848000000
      }
    },
    {
      "type" : "Feature",
      "id" : 109,
      "geometry" : {
        "type" : "Point",
        "coordinates" : [
          -91.837853999999936,
          41.465065000000038
        ]
      },
      "properties" : {
        "OBJECTID" : 109,
        "name" : "Wellman, IA",
        "latitude" : 41.465065000000003,
        "longitude" : -91.837853999999993,
        "time" : -2068243200000
      }
    },
    {
      "type" : "Feature",
      "id" : 110,
      "geometry" : {
        "type" : "Point",
        "coordinates" : [
          -91.837853999999936,
          41.465065000000038
        ]
      },
      "properties" : {
        "OBJECTID" : 110,
        "name" : "Wellman, IA",
        "latitude" : 41.465065000000003,
        "longitude" : -91.837853999999993,
        "time" : -2067638400000
      }
    },
    {
      "type" : "Feature",
      "id" : 111,
      "geometry" : {
        "type" : "Point",
        "coordinates" : [
          -91.734032999999954,
          41.316008000000068
        ]
      },
      "properties" : {
        "OBJECTID" : 111,
        "name" : "Poor Farm Near Washington: Washington, IA",
        "latitude" : 41.316007999999997,
        "longitude" : -91.734032999999997,
        "time" : -2067033600000
      }
    },
    {
      "type" : "Feature",
      "id" : 112,
      "geometry" : {
        "type" : "Point",
        "coordinates" : [
          -92.308793999999978,
          41.172513000000038
        ]
      },
      "properties" : {
        "OBJECTID" : 112,
        "name" : "Baldwin's Hall: Hedrick, IA",
        "latitude" : 41.172513000000002,
        "longitude" : -92.308794000000006,
        "time" : -2066860800000
      }
    },
    {
      "type" : "Feature",
      "id" : 113,
      "geometry" : {
        "type" : "Point",
        "coordinates" : [
          -91.819614999999942,
          41.174739000000045
        ]
      },
      "properties" : {
        "OBJECTID" : 113,
        "name" : "River Park: Brighton, IA",
        "latitude" : 41.174739000000002,
        "longitude" : -91.819614999999999,
        "time" : -2065824000000
      }
    },
    {
      "type" : "Feature",
      "id" : 114,
      "geometry" : {
        "type" : "Point",
        "coordinates" : [
          -91.538750999999991,
          41.21538600000008
        ]
      },
      "properties" : {
        "OBJECTID" : 114,
        "name" : "Crawfordsville Town Hall: Crawfordsville, IA",
        "latitude" : 41.215386000000002,
        "longitude" : -91.538751000000005,
        "time" : -2065219200000
      }
    },
    {
      "type" : "Feature",
      "id" : 115,
      "geometry" : {
        "type" : "Point",
        "coordinates" : [
          -91.817670999999962,
          41.33890400000007
        ]
      },
      "properties" : {
        "OBJECTID" : 115,
        "name" : "Baptist Church: West Chester, IA",
        "latitude" : 41.338903999999999,
        "longitude" : -91.817671000000004,
        "time" : -2064614400000
      }
    },
    {
      "type" : "Feature",
      "id" : 116,
      "geometry" : {
        "type" : "Point",
        "coordinates" : [
          -91.819614999999942,
          41.174739000000045
        ]
      },
      "properties" : {
        "OBJECTID" : 116,
        "name" : "River Park: Brighton, IA",
        "latitude" : 41.174739000000002,
        "longitude" : -91.819614999999999,
        "time" : -2064009600000
      }
    },
    {
      "type" : "Feature",
      "id" : 117,
      "geometry" : {
        "type" : "Point",
        "coordinates" : [
          -91.661306999999965,
          41.147783000000061
        ]
      },
      "properties" : {
        "OBJECTID" : 117,
        "name" : "Wayland, IA",
        "latitude" : 41.147782999999997,
        "longitude" : -91.661306999999994,
        "time" : -2063404800000
      }
    },
    {
      "type" : "Feature",
      "id" : 118,
      "geometry" : {
        "type" : "Point",
        "coordinates" : [
          -91.706001999999955,
          41.48307200000005
        ]
      },
      "properties" : {
        "OBJECTID" : 118,
        "name" : "Kalona Opera House: Kalona, IA",
        "latitude" : 41.483072,
        "longitude" : -91.706001999999998,
        "time" : -2062195200000
      }
    },
    {
      "type" : "Feature",
      "id" : 119,
      "geometry" : {
        "type" : "Point",
        "coordinates" : [
          -91.734032999999954,
          41.316008000000068
        ]
      },
      "properties" : {
        "OBJECTID" : 119,
        "name" : "Graham Opera House: Washington, IA",
        "latitude" : 41.316007999999997,
        "longitude" : -91.734032999999997,
        "time" : -2060985600000
      }
    },
    {
      "type" : "Feature",
      "id" : 120,
      "geometry" : {
        "type" : "Point",
        "coordinates" : [
          -91.95378599999998,
          41.363902000000053
        ]
      },
      "properties" : {
        "OBJECTID" : 120,
        "name" : "Keota, IA",
        "latitude" : 41.363902000000003,
        "longitude" : -91.953785999999994,
        "time" : -2060726400000
      }
    },
    {
      "type" : "Feature",
      "id" : 121,
      "geometry" : {
        "type" : "Point",
        "coordinates" : [
          -92.20483999999999,
          41.333046000000024
        ]
      },
      "properties" : {
        "OBJECTID" : 121,
        "name" : "Sigourney, IA",
        "latitude" : 41.333046000000003,
        "longitude" : -92.204840000000004,
        "time" : -2060640000000
      }
    },
    {
      "type" : "Feature",
      "id" : 122,
      "geometry" : {
        "type" : "Point",
        "coordinates" : [
          -92.308460999999966,
          41.174480000000074
        ]
      },
      "properties" : {
        "OBJECTID" : 122,
        "name" : "Hendrick, IA",
        "latitude" : 41.174480000000003,
        "longitude" : -92.308460999999994,
        "time" : -2060553600000
      }
    },
    {
      "type" : "Feature",
      "id" : 123,
      "geometry" : {
        "type" : "Point",
        "coordinates" : [
          -91.992952999999943,
          41.185571000000039
        ]
      },
      "properties" : {
        "OBJECTID" : 123,
        "name" : "Richland, IA",
        "latitude" : 41.185571000000003,
        "longitude" : -91.992953,
        "time" : -2060467200000
      }
    },
    {
      "type" : "Feature",
      "id" : 124,
      "geometry" : {
        "type" : "Point",
        "coordinates" : [
          -91.819614999999942,
          41.174739000000045
        ]
      },
      "properties" : {
        "OBJECTID" : 124,
        "name" : "Brighton, IA",
        "latitude" : 41.174739000000002,
        "longitude" : -91.819614999999999,
        "time" : -2060380800000
      }
    },
    {
      "type" : "Feature",
      "id" : 125,
      "geometry" : {
        "type" : "Point",
        "coordinates" : [
          -91.558072999999979,
          40.96369500000003
        ]
      },
      "properties" : {
        "OBJECTID" : 125,
        "name" : "Mount Pleasant, IA",
        "latitude" : 40.963695000000001,
        "longitude" : -91.558072999999993,
        "time" : -2060035200000
      }
    },
    {
      "type" : "Feature",
      "id" : 126,
      "geometry" : {
        "type" : "Point",
        "coordinates" : [
          -91.558072999999979,
          40.96369500000003
        ]
      },
      "properties" : {
        "OBJECTID" : 126,
        "name" : "Mount Pleasant, IA",
        "latitude" : 40.963695000000001,
        "longitude" : -91.558072999999993,
        "time" : -2059948800000
      }
    },
    {
      "type" : "Feature",
      "id" : 127,
      "geometry" : {
        "type" : "Point",
        "coordinates" : [
          -91.558072999999979,
          40.96369500000003
        ]
      },
      "properties" : {
        "OBJECTID" : 127,
        "name" : "Mount Pleasant, IA",
        "latitude" : 40.963695000000001,
        "longitude" : -91.558072999999993,
        "time" : -2059862400000
      }
    },
    {
      "type" : "Feature",
      "id" : 128,
      "geometry" : {
        "type" : "Point",
        "coordinates" : [
          -91.734032999999954,
          41.316008000000068
        ]
      },
      "properties" : {
        "OBJECTID" : 128,
        "name" : "Graham Opera House: Washington, IA",
        "latitude" : 41.316007999999997,
        "longitude" : -91.734032999999997,
        "time" : -2058480000000
      }
    },
    {
      "type" : "Feature",
      "id" : 129,
      "geometry" : {
        "type" : "Point",
        "coordinates" : [
          -91.992952999999943,
          41.185571000000039
        ]
      },
      "properties" : {
        "OBJECTID" : 129,
        "name" : "Richland Church: Richland, IA",
        "latitude" : 41.185571000000003,
        "longitude" : -91.992953,
        "time" : -2057529600000
      }
    },
    {
      "type" : "Feature",
      "id" : 130,
      "geometry" : {
        "type" : "Point",
        "coordinates" : [
          -92.251848999999936,
          41.178903000000048
        ]
      },
      "properties" : {
        "OBJECTID" : 130,
        "name" : "Alexander Hall: Martinsburg, IA",
        "latitude" : 41.178902999999998,
        "longitude" : -92.251849000000007,
        "time" : -2057443200000
      }
    },
    {
      "type" : "Feature",
      "id" : 131,
      "geometry" : {
        "type" : "Point",
        "coordinates" : [
          -92.093088999999964,
          41.198372000000063
        ]
      },
      "properties" : {
        "OBJECTID" : 131,
        "name" : "LaToska Opera House: Ollie, IA",
        "latitude" : 41.198371999999999,
        "longitude" : -92.093089000000006,
        "time" : -2057356800000
      }
    },
    {
      "type" : "Feature",
      "id" : 132,
      "geometry" : {
        "type" : "Point",
        "coordinates" : [
          -95.592477999999971,
          40.734594000000072
        ]
      },
      "properties" : {
        "OBJECTID" : 132,
        "name" : "Fremont, IA",
        "latitude" : 40.734594000000001,
        "longitude" : -95.592478,
        "time" : -2057184000000
      }
    },
    {
      "type" : "Feature",
      "id" : 133,
      "geometry" : {
        "type" : "Point",
        "coordinates" : [
          -95.592477999999971,
          40.734594000000072
        ]
      },
      "properties" : {
        "OBJECTID" : 133,
        "name" : "Fremont, IA",
        "latitude" : 40.734594000000001,
        "longitude" : -95.592478,
        "time" : -2057097600000
      }
    },
    {
      "type" : "Feature",
      "id" : 134,
      "geometry" : {
        "type" : "Point",
        "coordinates" : [
          -95.592477999999971,
          40.734594000000072
        ]
      },
      "properties" : {
        "OBJECTID" : 134,
        "name" : "Fremont, IA",
        "latitude" : 40.734594000000001,
        "longitude" : -95.592478,
        "time" : -2057011200000
      }
    },
    {
      "type" : "Feature",
      "id" : 135,
      "geometry" : {
        "type" : "Point",
        "coordinates" : [
          -92.634371999999985,
          41.157248000000038
        ]
      },
      "properties" : {
        "OBJECTID" : 135,
        "name" : "Opera House: Eddyville, IA",
        "latitude" : 41.157248000000003,
        "longitude" : -92.634371999999999,
        "time" : -2056924800000
      }
    },
    {
      "type" : "Feature",
      "id" : 136,
      "geometry" : {
        "type" : "Point",
        "coordinates" : [
          -92.634371999999985,
          41.157248000000038
        ]
      },
      "properties" : {
        "OBJECTID" : 136,
        "name" : "Opera House: Eddyville, IA",
        "latitude" : 41.157248000000003,
        "longitude" : -92.634371999999999,
        "time" : -2056838400000
      }
    },
    {
      "type" : "Feature",
      "id" : 137,
      "geometry" : {
        "type" : "Point",
        "coordinates" : [
          -92.634371999999985,
          41.157248000000038
        ]
      },
      "properties" : {
        "OBJECTID" : 137,
        "name" : "Opera House: Eddyville, IA",
        "latitude" : 41.157248000000003,
        "longitude" : -92.634371999999999,
        "time" : -2056752000000
      }
    },
    {
      "type" : "Feature",
      "id" : 138,
      "geometry" : {
        "type" : "Point",
        "coordinates" : [
          -92.72242099999994,
          41.743055000000027
        ]
      },
      "properties" : {
        "OBJECTID" : 138,
        "name" : "United Methodist Church: Grinnell, IA",
        "latitude" : 41.743054999999998,
        "longitude" : -92.722420999999997,
        "time" : -2056579200000
      }
    },
    {
      "type" : "Feature",
      "id" : 139,
      "geometry" : {
        "type" : "Point",
        "coordinates" : [
          -92.72242099999994,
          41.743055000000027
        ]
      },
      "properties" : {
        "OBJECTID" : 139,
        "name" : "United Methodist Church: Grinnell, IA",
        "latitude" : 41.743054999999998,
        "longitude" : -92.722420999999997,
        "time" : -2056492800000
      }
    },
    {
      "type" : "Feature",
      "id" : 140,
      "geometry" : {
        "type" : "Point",
        "coordinates" : [
          -92.72242099999994,
          41.743055000000027
        ]
      },
      "properties" : {
        "OBJECTID" : 140,
        "name" : "United Methodist Church: Grinnell, IA",
        "latitude" : 41.743054999999998,
        "longitude" : -92.722420999999997,
        "time" : -2056406400000
      }
    },
    {
      "type" : "Feature",
      "id" : 141,
      "geometry" : {
        "type" : "Point",
        "coordinates" : [
          -92.527430999999979,
          41.58487800000006
        ]
      },
      "properties" : {
        "OBJECTID" : 141,
        "name" : "Montezuma Opera House: Montezuma, IA",
        "latitude" : 41.584878000000003,
        "longitude" : -92.527431000000007,
        "time" : -2056320000000
      }
    },
    {
      "type" : "Feature",
      "id" : 142,
      "geometry" : {
        "type" : "Point",
        "coordinates" : [
          -92.354628999999989,
          41.401397000000031
        ]
      },
      "properties" : {
        "OBJECTID" : 142,
        "name" : "Masonic Opera House: What Cheer, IA",
        "latitude" : 41.401397000000003,
        "longitude" : -92.354629000000003,
        "time" : -2056233600000
      }
    },
    {
      "type" : "Feature",
      "id" : 143,
      "geometry" : {
        "type" : "Point",
        "coordinates" : [
          -92.354628999999989,
          41.401397000000031
        ]
      },
      "properties" : {
        "OBJECTID" : 143,
        "name" : "Masonic Opera House: What Cheer, IA",
        "latitude" : 41.401397000000003,
        "longitude" : -92.354629000000003,
        "time" : -2056147200000
      }
    },
    {
      "type" : "Feature",
      "id" : 144,
      "geometry" : {
        "type" : "Point",
        "coordinates" : [
          -91.734032999999954,
          41.316008000000068
        ]
      },
      "properties" : {
        "OBJECTID" : 144,
        "name" : "Graham Opera House: Washington, IA",
        "latitude" : 41.316007999999997,
        "longitude" : -91.734032999999997,
        "time" : -2055888000000
      }
    },
    {
      "type" : "Feature",
      "id" : 145,
      "geometry" : {
        "type" : "Point",
        "coordinates" : [
          -91.706001999999955,
          41.48307200000005
        ]
      },
      "properties" : {
        "OBJECTID" : 145,
        "name" : "Kalona Opera House: Kalona, IA",
        "latitude" : 41.483072,
        "longitude" : -91.706001999999998,
        "time" : -2055715200000
      }
    },
    {
      "type" : "Feature",
      "id" : 146,
      "geometry" : {
        "type" : "Point",
        "coordinates" : [
          -91.837853999999936,
          41.465065000000038
        ]
      },
      "properties" : {
        "OBJECTID" : 146,
        "name" : "Wellman, IA",
        "latitude" : 41.465065000000003,
        "longitude" : -91.837853999999993,
        "time" : -2055628800000
      }
    },
    {
      "type" : "Feature",
      "id" : 147,
      "geometry" : {
        "type" : "Point",
        "coordinates" : [
          -92.171840999999972,
          41.438889000000074
        ]
      },
      "properties" : {
        "OBJECTID" : 147,
        "name" : "Webster, IA",
        "latitude" : 41.438889000000003,
        "longitude" : -92.171841000000001,
        "time" : -2055542400000
      }
    },
    {
      "type" : "Feature",
      "id" : 148,
      "geometry" : {
        "type" : "Point",
        "coordinates" : [
          -92.171840999999972,
          41.438889000000074
        ]
      },
      "properties" : {
        "OBJECTID" : 148,
        "name" : "Webster, IA",
        "latitude" : 41.438889000000003,
        "longitude" : -92.171841000000001,
        "time" : -2055369600000
      }
    },
    {
      "type" : "Feature",
      "id" : 149,
      "geometry" : {
        "type" : "Point",
        "coordinates" : [
          -92.23934799999995,
          41.45250800000008
        ]
      },
      "properties" : {
        "OBJECTID" : 149,
        "name" : "Keswick, IA",
        "latitude" : 41.452508000000002,
        "longitude" : -92.239348000000007,
        "time" : -2055283200000
      }
    },
    {
      "type" : "Feature",
      "id" : 150,
      "geometry" : {
        "type" : "Point",
        "coordinates" : [
          -92.076288999999974,
          41.51389800000004
        ]
      },
      "properties" : {
        "OBJECTID" : 150,
        "name" : "Christian Church: North English, IA",
        "latitude" : 41.513897999999998,
        "longitude" : -92.076289000000003,
        "time" : -2055110400000
      }
    },
    {
      "type" : "Feature",
      "id" : 151,
      "geometry" : {
        "type" : "Point",
        "coordinates" : [
          -92.009505999999988,
          41.661228000000051
        ]
      },
      "properties" : {
        "OBJECTID" : 151,
        "name" : "Trojan Opera House: Williamsburg, IA",
        "latitude" : 41.661228000000001,
        "longitude" : -92.009506000000002,
        "time" : -2055024000000
      }
    },
    {
      "type" : "Feature",
      "id" : 152,
      "geometry" : {
        "type" : "Point",
        "coordinates" : [
          -92.009505999999988,
          41.661228000000051
        ]
      },
      "properties" : {
        "OBJECTID" : 152,
        "name" : "Trojan Opera House: Williamsburg, IA",
        "latitude" : 41.661228000000001,
        "longitude" : -92.009506000000002,
        "time" : -2054937600000
      }
    },
    {
      "type" : "Feature",
      "id" : 153,
      "geometry" : {
        "type" : "Point",
        "coordinates" : [
          -92.083341999999959,
          41.907089000000042
        ]
      },
      "properties" : {
        "OBJECTID" : 153,
        "name" : "Brian Opera House: Blairstown, IA",
        "latitude" : 41.907088999999999,
        "longitude" : -92.083342000000002,
        "time" : -2054764800000
      }
    },
    {
      "type" : "Feature",
      "id" : 154,
      "geometry" : {
        "type" : "Point",
        "coordinates" : [
          -92.083341999999959,
          41.907089000000042
        ]
      },
      "properties" : {
        "OBJECTID" : 154,
        "name" : "Brian Opera House: Blairstown, IA",
        "latitude" : 41.907088999999999,
        "longitude" : -92.083342000000002,
        "time" : -2054678400000
      }
    },
    {
      "type" : "Feature",
      "id" : 155,
      "geometry" : {
        "type" : "Point",
        "coordinates" : [
          -91.921568999999977,
          41.902781000000061
        ]
      },
      "properties" : {
        "OBJECTID" : 155,
        "name" : "Norway Opera House: Norway, IA",
        "latitude" : 41.902780999999997,
        "longitude" : -91.921569000000005,
        "time" : -2054505600000
      }
    },
    {
      "type" : "Feature",
      "id" : 156,
      "geometry" : {
        "type" : "Point",
        "coordinates" : [
          -91.921568999999977,
          41.902781000000061
        ]
      },
      "properties" : {
        "OBJECTID" : 156,
        "name" : "Norway Opera House: Norway, IA",
        "latitude" : 41.902780999999997,
        "longitude" : -91.921569000000005,
        "time" : -2054419200000
      }
    },
    {
      "type" : "Feature",
      "id" : 157,
      "geometry" : {
        "type" : "Point",
        "coordinates" : [
          -91.921568999999977,
          41.902781000000061
        ]
      },
      "properties" : {
        "OBJECTID" : 157,
        "name" : "Norway Opera House: Norway, IA",
        "latitude" : 41.902780999999997,
        "longitude" : -91.921569000000005,
        "time" : -2054332800000
      }
    },
    {
      "type" : "Feature",
      "id" : 158,
      "geometry" : {
        "type" : "Point",
        "coordinates" : [
          -91.524055999999973,
          42.203883000000076
        ]
      },
      "properties" : {
        "OBJECTID" : 158,
        "name" : "Central City, IA",
        "latitude" : 42.203882999999998,
        "longitude" : -91.524056000000002,
        "time" : -2054160000000
      }
    },
    {
      "type" : "Feature",
      "id" : 159,
      "geometry" : {
        "type" : "Point",
        "coordinates" : [
          -91.524055999999973,
          42.203883000000076
        ]
      },
      "properties" : {
        "OBJECTID" : 159,
        "name" : "Central City, IA",
        "latitude" : 42.203882999999998,
        "longitude" : -91.524056000000002,
        "time" : -2054073600000
      }
    },
    {
      "type" : "Feature",
      "id" : 160,
      "geometry" : {
        "type" : "Point",
        "coordinates" : [
          -91.524055999999973,
          42.203883000000076
        ]
      },
      "properties" : {
        "OBJECTID" : 160,
        "name" : "Central City, IA",
        "latitude" : 42.203882999999998,
        "longitude" : -91.524056000000002,
        "time" : -2053987200000
      }
    },
    {
      "type" : "Feature",
      "id" : 161,
      "geometry" : {
        "type" : "Point",
        "coordinates" : [
          -91.455424999999991,
          42.484154000000046
        ]
      },
      "properties" : {
        "OBJECTID" : 161,
        "name" : "Central Opera House: Manchester, IA",
        "latitude" : 42.484153999999997,
        "longitude" : -91.455425000000005,
        "time" : -2053900800000
      }
    },
    {
      "type" : "Feature",
      "id" : 162,
      "geometry" : {
        "type" : "Point",
        "coordinates" : [
          -91.455424999999991,
          42.484154000000046
        ]
      },
      "properties" : {
        "OBJECTID" : 162,
        "name" : "Central Opera House: Manchester, IA",
        "latitude" : 42.484153999999997,
        "longitude" : -91.455425000000005,
        "time" : -2053814400000
      }
    },
    {
      "type" : "Feature",
      "id" : 163,
      "geometry" : {
        "type" : "Point",
        "coordinates" : [
          -91.455424999999991,
          42.484154000000046
        ]
      },
      "properties" : {
        "OBJECTID" : 163,
        "name" : "Central Opera House: Manchester, IA",
        "latitude" : 42.484153999999997,
        "longitude" : -91.455425000000005,
        "time" : -2053728000000
      }
    },
    {
      "type" : "Feature",
      "id" : 164,
      "geometry" : {
        "type" : "Point",
        "coordinates" : [
          -91.455424999999991,
          42.484154000000046
        ]
      },
      "properties" : {
        "OBJECTID" : 164,
        "name" : "Central Opera House: Manchester, IA",
        "latitude" : 42.484153999999997,
        "longitude" : -91.455425000000005,
        "time" : -2053728000000
      }
    },
    {
      "type" : "Feature",
      "id" : 165,
      "geometry" : {
        "type" : "Point",
        "coordinates" : [
          -91.014222999999959,
          42.298488000000077
        ]
      },
      "properties" : {
        "OBJECTID" : 165,
        "name" : "Cascade Opera House: Cascade, IA",
        "latitude" : 42.298487999999999,
        "longitude" : -91.014223000000001,
        "time" : -2053555200000
      }
    },
    {
      "type" : "Feature",
      "id" : 166,
      "geometry" : {
        "type" : "Point",
        "coordinates" : [
          -91.014222999999959,
          42.298488000000077
        ]
      },
      "properties" : {
        "OBJECTID" : 166,
        "name" : "Cascade Opera House: Cascade, IA",
        "latitude" : 42.298487999999999,
        "longitude" : -91.014223000000001,
        "time" : -2053468800000
      }
    },
    {
      "type" : "Feature",
      "id" : 167,
      "geometry" : {
        "type" : "Point",
        "coordinates" : [
          -92.72242099999994,
          41.743055000000027
        ]
      },
      "properties" : {
        "OBJECTID" : 167,
        "name" : "Preston Opera House: Grinnell, IA",
        "latitude" : 41.743054999999998,
        "longitude" : -92.722420999999997,
        "time" : -2053296000000
      }
    },
    {
      "type" : "Feature",
      "id" : 168,
      "geometry" : {
        "type" : "Point",
        "coordinates" : [
          -92.72242099999994,
          41.743055000000027
        ]
      },
      "properties" : {
        "OBJECTID" : 168,
        "name" : "Preston Opera House: Grinnell, IA",
        "latitude" : 41.743054999999998,
        "longitude" : -92.722420999999997,
        "time" : -2053209600000
      }
    },
    {
      "type" : "Feature",
      "id" : 169,
      "geometry" : {
        "type" : "Point",
        "coordinates" : [
          -92.72242099999994,
          41.743055000000027
        ]
      },
      "properties" : {
        "OBJECTID" : 169,
        "name" : "Preston Opera House: Grinnell, IA",
        "latitude" : 41.743054999999998,
        "longitude" : -92.722420999999997,
        "time" : -2053123200000
      }
    },
    {
      "type" : "Feature",
      "id" : 170,
      "geometry" : {
        "type" : "Point",
        "coordinates" : [
          -92.72242099999994,
          41.743055000000027
        ]
      },
      "properties" : {
        "OBJECTID" : 170,
        "name" : "Preston Opera House: Grinnell, IA",
        "latitude" : 41.743054999999998,
        "longitude" : -92.722420999999997,
        "time" : -2053123200000
      }
    },
    {
      "type" : "Feature",
      "id" : 171,
      "geometry" : {
        "type" : "Point",
        "coordinates" : [
          -92.445462999999961,
          41.733609000000058
        ]
      },
      "properties" : {
        "OBJECTID" : 171,
        "name" : "Brooklyn Opera House: Brooklyn, IA",
        "latitude" : 41.733609000000001,
        "longitude" : -92.445463000000004,
        "time" : -2052950400000
      }
    },
    {
      "type" : "Feature",
      "id" : 172,
      "geometry" : {
        "type" : "Point",
        "coordinates" : [
          -92.445462999999961,
          41.733609000000058
        ]
      },
      "properties" : {
        "OBJECTID" : 172,
        "name" : "Brooklyn Opera House: Brooklyn, IA",
        "latitude" : 41.733609000000001,
        "longitude" : -92.445463000000004,
        "time" : -2052864000000
      }
    },
    {
      "type" : "Feature",
      "id" : 173,
      "geometry" : {
        "type" : "Point",
        "coordinates" : [
          -92.445462999999961,
          41.733609000000058
        ]
      },
      "properties" : {
        "OBJECTID" : 173,
        "name" : "Brooklyn Opera House: Brooklyn, IA",
        "latitude" : 41.733609000000001,
        "longitude" : -92.445463000000004,
        "time" : -2052777600000
      }
    },
    {
      "type" : "Feature",
      "id" : 174,
      "geometry" : {
        "type" : "Point",
        "coordinates" : [
          -92.559075999999948,
          41.708330000000046
        ]
      },
      "properties" : {
        "OBJECTID" : 174,
        "name" : "Malcom, IA",
        "latitude" : 41.708329999999997,
        "longitude" : -92.559076000000005,
        "time" : -2052691200000
      }
    },
    {
      "type" : "Feature",
      "id" : 175,
      "geometry" : {
        "type" : "Point",
        "coordinates" : [
          -92.23934799999995,
          41.45250800000008
        ]
      },
      "properties" : {
        "OBJECTID" : 175,
        "name" : "Keswick, IA",
        "latitude" : 41.452508000000002,
        "longitude" : -92.239348000000007,
        "time" : -2052604800000
      }
    },
    {
      "type" : "Feature",
      "id" : 176,
      "geometry" : {
        "type" : "Point",
        "coordinates" : [
          -92.076288999999974,
          41.51389800000004
        ]
      },
      "properties" : {
        "OBJECTID" : 176,
        "name" : "Christian Church: North English, IA",
        "latitude" : 41.513897999999998,
        "longitude" : -92.076289000000003,
        "time" : -2052518400000
      }
    },
    {
      "type" : "Feature",
      "id" : 177,
      "geometry" : {
        "type" : "Point",
        "coordinates" : [
          -91.734032999999954,
          41.316008000000068
        ]
      },
      "properties" : {
        "OBJECTID" : 177,
        "name" : "Graham Opera House: Washington, IA",
        "latitude" : 41.316007999999997,
        "longitude" : -91.734032999999997,
        "time" : -2051308800000
      }
    },
    {
      "type" : "Feature",
      "id" : 178,
      "geometry" : {
        "type" : "Point",
        "coordinates" : [
          -91.734032999999954,
          41.316008000000068
        ]
      },
      "properties" : {
        "OBJECTID" : 178,
        "name" : null,
        "latitude" : 41.316007999999997,
        "longitude" : -91.734032999999997,
        "time" : -2051222400000
      }
    },
    {
      "type" : "Feature",
      "id" : 179,
      "geometry" : {
        "type" : "Point",
        "coordinates" : [
          -91.127934999999979,
          41.769743000000062
        ]
      },
      "properties" : {
        "OBJECTID" : 179,
        "name" : "Opera House",
        "latitude" : 41.769742999999998,
        "longitude" : -91.127934999999994,
        "time" : -2051136000000
      }
    },
    {
      "type" : "Feature",
      "id" : 180,
      "geometry" : {
        "type" : "Point",
        "coordinates" : [
          -91.127934999999979,
          41.769743000000062
        ]
      },
      "properties" : {
        "OBJECTID" : 180,
        "name" : "Opera House",
        "latitude" : 41.769742999999998,
        "longitude" : -91.127934999999994,
        "time" : -2051049600000
      }
    },
    {
      "type" : "Feature",
      "id" : 181,
      "geometry" : {
        "type" : "Point",
        "coordinates" : [
          -91.127934999999979,
          41.769743000000062
        ]
      },
      "properties" : {
        "OBJECTID" : 181,
        "name" : "Opera House",
        "latitude" : 41.769742999999998,
        "longitude" : -91.127934999999994,
        "time" : -2050963200000
      }
    },
    {
      "type" : "Feature",
      "id" : 182,
      "geometry" : {
        "type" : "Point",
        "coordinates" : [
          -91.285158999999965,
          42.108337000000063
        ]
      },
      "properties" : {
        "OBJECTID" : 182,
        "name" : "Opera House",
        "latitude" : 42.108336999999999,
        "longitude" : -91.285158999999993,
        "time" : -2050876800000
      }
    },
    {
      "type" : "Feature",
      "id" : 183,
      "geometry" : {
        "type" : "Point",
        "coordinates" : [
          -91.285158999999965,
          42.108337000000063
        ]
      },
      "properties" : {
        "OBJECTID" : 183,
        "name" : "Opera House",
        "latitude" : 42.108336999999999,
        "longitude" : -91.285158999999993,
        "time" : -2050790400000
      }
    },
    {
      "type" : "Feature",
      "id" : 184,
      "geometry" : {
        "type" : "Point",
        "coordinates" : [
          -91.285158999999965,
          42.108337000000063
        ]
      },
      "properties" : {
        "OBJECTID" : 184,
        "name" : "Opera House",
        "latitude" : 42.108336999999999,
        "longitude" : -91.285158999999993,
        "time" : -2050704000000
      }
    },
    {
      "type" : "Feature",
      "id" : 185,
      "geometry" : {
        "type" : "Point",
        "coordinates" : [
          -91.285158999999965,
          42.108337000000063
        ]
      },
      "properties" : {
        "OBJECTID" : 185,
        "name" : null,
        "latitude" : 42.108336999999999,
        "longitude" : -91.285158999999993,
        "time" : -2050617600000
      }
    },
    {
      "type" : "Feature",
      "id" : 186,
      "geometry" : {
        "type" : "Point",
        "coordinates" : [
          -91.186942999999985,
          42.238275000000044
        ]
      },
      "properties" : {
        "OBJECTID" : 186,
        "name" : "Opera House",
        "latitude" : 42.238275000000002,
        "longitude" : -91.186942999999999,
        "time" : -2050531200000
      }
    },
    {
      "type" : "Feature",
      "id" : 187,
      "geometry" : {
        "type" : "Point",
        "coordinates" : [
          -91.186942999999985,
          42.238275000000044
        ]
      },
      "properties" : {
        "OBJECTID" : 187,
        "name" : "Opera House",
        "latitude" : 42.238275000000002,
        "longitude" : -91.186942999999999,
        "time" : -2050444800000
      }
    },
    {
      "type" : "Feature",
      "id" : 188,
      "geometry" : {
        "type" : "Point",
        "coordinates" : [
          -91.186942999999985,
          42.238275000000044
        ]
      },
      "properties" : {
        "OBJECTID" : 188,
        "name" : "Opera House",
        "latitude" : 42.238275000000002,
        "longitude" : -91.186942999999999,
        "time" : -2050358400000
      }
    },
    {
      "type" : "Feature",
      "id" : 189,
      "geometry" : {
        "type" : "Point",
        "coordinates" : [
          -92.672410999999954,
          43.066361000000029
        ]
      },
      "properties" : {
        "OBJECTID" : 189,
        "name" : "Hildreth Opera House",
        "latitude" : 43.066361000000001,
        "longitude" : -92.672410999999997,
        "time" : -2050272000000
      }
    },
    {
      "type" : "Feature",
      "id" : 190,
      "geometry" : {
        "type" : "Point",
        "coordinates" : [
          -92.672410999999954,
          43.066361000000029
        ]
      },
      "properties" : {
        "OBJECTID" : 190,
        "name" : "Hildreth Opera House",
        "latitude" : 43.066361000000001,
        "longitude" : -92.672410999999997,
        "time" : -2050185600000
      }
    },
    {
      "type" : "Feature",
      "id" : 191,
      "geometry" : {
        "type" : "Point",
        "coordinates" : [
          -92.672410999999954,
          43.066361000000029
        ]
      },
      "properties" : {
        "OBJECTID" : 191,
        "name" : "Hildreth Opera House",
        "latitude" : 43.066361000000001,
        "longitude" : -92.672410999999997,
        "time" : -2050099200000
      }
    },
    {
      "type" : "Feature",
      "id" : 192,
      "geometry" : {
        "type" : "Point",
        "coordinates" : [
          -92.672410999999954,
          43.066361000000029
        ]
      },
      "properties" : {
        "OBJECTID" : 192,
        "name" : null,
        "latitude" : 43.066361000000001,
        "longitude" : -92.672410999999997,
        "time" : -2050012800000
      }
    },
    {
      "type" : "Feature",
      "id" : 193,
      "geometry" : {
        "type" : "Point",
        "coordinates" : [
          -91.808216999999956,
          42.96275600000007
        ]
      },
      "properties" : {
        "OBJECTID" : 193,
        "name" : "Opera House",
        "latitude" : 42.962755999999999,
        "longitude" : -91.808216999999999,
        "time" : -2049926400000
      }
    },
    {
      "type" : "Feature",
      "id" : 194,
      "geometry" : {
        "type" : "Point",
        "coordinates" : [
          -91.808216999999956,
          42.96275600000007
        ]
      },
      "properties" : {
        "OBJECTID" : 194,
        "name" : "Opera House",
        "latitude" : 42.962755999999999,
        "longitude" : -91.808216999999999,
        "time" : -2049840000000
      }
    },
    {
      "type" : "Feature",
      "id" : 195,
      "geometry" : {
        "type" : "Point",
        "coordinates" : [
          -91.808216999999956,
          42.96275600000007
        ]
      },
      "properties" : {
        "OBJECTID" : 195,
        "name" : "Opera House",
        "latitude" : 42.962755999999999,
        "longitude" : -91.808216999999999,
        "time" : -2049753600000
      }
    },
    {
      "type" : "Feature",
      "id" : 196,
      "geometry" : {
        "type" : "Point",
        "coordinates" : [
          -90.633501999999964,
          41.573841000000073
        ]
      },
      "properties" : {
        "OBJECTID" : 196,
        "name" : "Opera House",
        "latitude" : 41.573841000000002,
        "longitude" : -90.633501999999993,
        "time" : -2049667200000
      }
    },
    {
      "type" : "Feature",
      "id" : 197,
      "geometry" : {
        "type" : "Point",
        "coordinates" : [
          -91.913503999999989,
          42.673317000000054
        ]
      },
      "properties" : {
        "OBJECTID" : 197,
        "name" : "Opera House",
        "latitude" : 42.673316999999997,
        "longitude" : -91.913504000000003,
        "time" : -2049580800000
      }
    },
    {
      "type" : "Feature",
      "id" : 198,
      "geometry" : {
        "type" : "Point",
        "coordinates" : [
          -91.913503999999989,
          42.673317000000054
        ]
      },
      "properties" : {
        "OBJECTID" : 198,
        "name" : "Opera House",
        "latitude" : 42.673316999999997,
        "longitude" : -91.913504000000003,
        "time" : -2049494400000
      }
    },
    {
      "type" : "Feature",
      "id" : 199,
      "geometry" : {
        "type" : "Point",
        "coordinates" : [
          -91.913503999999989,
          42.673317000000054
        ]
      },
      "properties" : {
        "OBJECTID" : 199,
        "name" : null,
        "latitude" : 42.673316999999997,
        "longitude" : -91.913504000000003,
        "time" : -2049408000000
      }
    },
    {
      "type" : "Feature",
      "id" : 200,
      "geometry" : {
        "type" : "Point",
        "coordinates" : [
          -92.475462999999991,
          42.725814000000071
        ]
      },
      "properties" : {
        "OBJECTID" : 200,
        "name" : "Opera House",
        "latitude" : 42.725814,
        "longitude" : -92.475463000000005,
        "time" : -2049321600000
      }
    },
    {
      "type" : "Feature",
      "id" : 201,
      "geometry" : {
        "type" : "Point",
        "coordinates" : [
          -92.475462999999991,
          42.725814000000071
        ]
      },
      "properties" : {
        "OBJECTID" : 201,
        "name" : "Opera House",
        "latitude" : 42.725814,
        "longitude" : -92.475463000000005,
        "time" : -2049235200000
      }
    },
    {
      "type" : "Feature",
      "id" : 202,
      "geometry" : {
        "type" : "Point",
        "coordinates" : [
          -92.475462999999991,
          42.725814000000071
        ]
      },
      "properties" : {
        "OBJECTID" : 202,
        "name" : "Opera House",
        "latitude" : 42.725814,
        "longitude" : -92.475463000000005,
        "time" : -2049148800000
      }
    },
    {
      "type" : "Feature",
      "id" : 203,
      "geometry" : {
        "type" : "Point",
        "coordinates" : [
          -93.202272999999991,
          42.742009000000053
        ]
      },
      "properties" : {
        "OBJECTID" : 203,
        "name" : "Olympic Opera House",
        "latitude" : 42.742009000000003,
        "longitude" : -93.202273000000005,
        "time" : -2049062400000
      }
    },
    {
      "type" : "Feature",
      "id" : 204,
      "geometry" : {
        "type" : "Point",
        "coordinates" : [
          -93.202272999999991,
          42.742009000000053
        ]
      },
      "properties" : {
        "OBJECTID" : 204,
        "name" : "Opera House",
        "latitude" : 42.742009000000003,
        "longitude" : -93.202273000000005,
        "time" : -2048976000000
      }
    },
    {
      "type" : "Feature",
      "id" : 205,
      "geometry" : {
        "type" : "Point",
        "coordinates" : [
          -93.202272999999991,
          42.742009000000053
        ]
      },
      "properties" : {
        "OBJECTID" : 205,
        "name" : "Opera House",
        "latitude" : 42.742009000000003,
        "longitude" : -93.202273000000005,
        "time" : -2048889600000
      }
    },
    {
      "type" : "Feature",
      "id" : 206,
      "geometry" : {
        "type" : "Point",
        "coordinates" : [
          -94.168015999999966,
          42.497469000000081
        ]
      },
      "properties" : {
        "OBJECTID" : 206,
        "name" : "Midland Theater",
        "latitude" : 42.497469000000002,
        "longitude" : -94.168015999999994,
        "time" : -2048716800000
      }
    },
    {
      "type" : "Feature",
      "id" : 207,
      "geometry" : {
        "type" : "Point",
        "coordinates" : [
          -94.168015999999966,
          42.497469000000081
        ]
      },
      "properties" : {
        "OBJECTID" : 207,
        "name" : "Midland Theater",
        "latitude" : 42.497469000000002,
        "longitude" : -94.168015999999994,
        "time" : -2048630400000
      }
    },
    {
      "type" : "Feature",
      "id" : 208,
      "geometry" : {
        "type" : "Point",
        "coordinates" : [
          -94.168015999999966,
          42.497469000000081
        ]
      },
      "properties" : {
        "OBJECTID" : 208,
        "name" : "Midland Theater",
        "latitude" : 42.497469000000002,
        "longitude" : -94.168015999999994,
        "time" : -2048544000000
      }
    },
    {
      "type" : "Feature",
      "id" : 209,
      "geometry" : {
        "type" : "Point",
        "coordinates" : [
          -91.88933899999995,
          42.468598000000043
        ]
      },
      "properties" : {
        "OBJECTID" : 209,
        "name" : "Gedney Hotel",
        "latitude" : 42.468598,
        "longitude" : -91.889339000000007,
        "time" : -2048457600000
      }
    },
    {
      "type" : "Feature",
      "id" : 210,
      "geometry" : {
        "type" : "Point",
        "coordinates" : [
          -91.88933899999995,
          42.468598000000043
        ]
      },
      "properties" : {
        "OBJECTID" : 210,
        "name" : "Gedney Hotel",
        "latitude" : 42.468598,
        "longitude" : -91.889339000000007,
        "time" : -2048371200000
      }
    },
    {
      "type" : "Feature",
      "id" : 211,
      "geometry" : {
        "type" : "Point",
        "coordinates" : [
          -91.88933899999995,
          42.468598000000043
        ]
      },
      "properties" : {
        "OBJECTID" : 211,
        "name" : "Gedney Hotel",
        "latitude" : 42.468598,
        "longitude" : -91.889339000000007,
        "time" : -2048284800000
      }
    },
    {
      "type" : "Feature",
      "id" : 212,
      "geometry" : {
        "type" : "Point",
        "coordinates" : [
          -91.88933899999995,
          42.468598000000043
        ]
      },
      "properties" : {
        "OBJECTID" : 212,
        "name" : null,
        "latitude" : 42.468598,
        "longitude" : -91.889339000000007,
        "time" : -2048198400000
      }
    },
    {
      "type" : "Feature",
      "id" : 213,
      "geometry" : {
        "type" : "Point",
        "coordinates" : [
          -92.912338999999974,
          42.044255000000078
        ]
      },
      "properties" : {
        "OBJECTID" : 213,
        "name" : "Oden Opera House",
        "latitude" : 42.044255,
        "longitude" : -92.912339000000003,
        "time" : -2048112000000
      }
    },
    {
      "type" : "Feature",
      "id" : 214,
      "geometry" : {
        "type" : "Point",
        "coordinates" : [
          -92.912338999999974,
          42.044255000000078
        ]
      },
      "properties" : {
        "OBJECTID" : 214,
        "name" : "Oden Opera House",
        "latitude" : 42.044255,
        "longitude" : -92.912339000000003,
        "time" : -2048025600000
      }
    },
    {
      "type" : "Feature",
      "id" : 215,
      "geometry" : {
        "type" : "Point",
        "coordinates" : [
          -92.912338999999974,
          42.044255000000078
        ]
      },
      "properties" : {
        "OBJECTID" : 215,
        "name" : "Oden Opera House",
        "latitude" : 42.044255,
        "longitude" : -92.912339000000003,
        "time" : -2047939200000
      }
    },
    {
      "type" : "Feature",
      "id" : 216,
      "geometry" : {
        "type" : "Point",
        "coordinates" : [
          -91.52991099999997,
          41.661256000000037
        ]
      },
      "properties" : {
        "OBJECTID" : 216,
        "name" : "Opera House",
        "latitude" : 41.661256000000002,
        "longitude" : -91.529910999999998,
        "time" : -2047852800000
      }
    },
    {
      "type" : "Feature",
      "id" : 217,
      "geometry" : {
        "type" : "Point",
        "coordinates" : [
          -91.52991099999997,
          41.661256000000037
        ]
      },
      "properties" : {
        "OBJECTID" : 217,
        "name" : "Opera House",
        "latitude" : 41.661256000000002,
        "longitude" : -91.529910999999998,
        "time" : -2047766400000
      }
    },
    {
      "type" : "Feature",
      "id" : 218,
      "geometry" : {
        "type" : "Point",
        "coordinates" : [
          -91.52991099999997,
          41.661256000000037
        ]
      },
      "properties" : {
        "OBJECTID" : 218,
        "name" : "Opera House",
        "latitude" : 41.661256000000002,
        "longitude" : -91.529910999999998,
        "time" : -2047680000000
      }
    },
    {
      "type" : "Feature",
      "id" : 219,
      "geometry" : {
        "type" : "Point",
        "coordinates" : [
          -91.52991099999997,
          41.661256000000037
        ]
      },
      "properties" : {
        "OBJECTID" : 219,
        "name" : null,
        "latitude" : 41.661256000000002,
        "longitude" : -91.529910999999998,
        "time" : -2047593600000
      }
    },
    {
      "type" : "Feature",
      "id" : 220,
      "geometry" : {
        "type" : "Point",
        "coordinates" : [
          -93.452433999999982,
          42.022765000000049
        ]
      },
      "properties" : {
        "OBJECTID" : 220,
        "name" : "Opera House",
        "latitude" : 42.022765,
        "longitude" : -93.452433999999997,
        "time" : -2047507200000
      }
    },
    {
      "type" : "Feature",
      "id" : 221,
      "geometry" : {
        "type" : "Point",
        "coordinates" : [
          -93.452433999999982,
          42.022765000000049
        ]
      },
      "properties" : {
        "OBJECTID" : 221,
        "name" : "Opera House",
        "latitude" : 42.022765,
        "longitude" : -93.452433999999997,
        "time" : -2047420800000
      }
    },
    {
      "type" : "Feature",
      "id" : 222,
      "geometry" : {
        "type" : "Point",
        "coordinates" : [
          -93.452433999999982,
          42.022765000000049
        ]
      },
      "properties" : {
        "OBJECTID" : 222,
        "name" : "Opera House",
        "latitude" : 42.022765,
        "longitude" : -93.452433999999997,
        "time" : -2047334400000
      }
    },
    {
      "type" : "Feature",
      "id" : 223,
      "geometry" : {
        "type" : "Point",
        "coordinates" : [
          -93.880226999999991,
          42.059705000000065
        ]
      },
      "properties" : {
        "OBJECTID" : 223,
        "name" : "Arie Opera House",
        "latitude" : 42.059705000000001,
        "longitude" : -93.880227000000005,
        "time" : -2047248000000
      }
    },
    {
      "type" : "Feature",
      "id" : 224,
      "geometry" : {
        "type" : "Point",
        "coordinates" : [
          -93.880226999999991,
          42.059705000000065
        ]
      },
      "properties" : {
        "OBJECTID" : 224,
        "name" : "Arie Opera House",
        "latitude" : 42.059705000000001,
        "longitude" : -93.880227000000005,
        "time" : -2047161600000
      }
    },
    {
      "type" : "Feature",
      "id" : 225,
      "geometry" : {
        "type" : "Point",
        "coordinates" : [
          -93.880226999999991,
          42.059705000000065
        ]
      },
      "properties" : {
        "OBJECTID" : 225,
        "name" : "Arie Opera House",
        "latitude" : 42.059705000000001,
        "longitude" : -93.880227000000005,
        "time" : -2047075200000
      }
    },
    {
      "type" : "Feature",
      "id" : 226,
      "geometry" : {
        "type" : "Point",
        "coordinates" : [
          -93.880226999999991,
          42.059705000000065
        ]
      },
      "properties" : {
        "OBJECTID" : 226,
        "name" : "Arie Opera House",
        "latitude" : 42.059705000000001,
        "longitude" : -93.880227000000005,
        "time" : -2047075200000
      }
    },
    {
      "type" : "Feature",
      "id" : 227,
      "geometry" : {
        "type" : "Point",
        "coordinates" : [
          -93.880226999999991,
          42.059705000000065
        ]
      },
      "properties" : {
        "OBJECTID" : 227,
        "name" : null,
        "latitude" : 42.059705000000001,
        "longitude" : -93.880227000000005,
        "time" : -2046988800000
      }
    },
    {
      "type" : "Feature",
      "id" : 228,
      "geometry" : {
        "type" : "Point",
        "coordinates" : [
          -93.904389999999978,
          42.664138000000037
        ]
      },
      "properties" : {
        "OBJECTID" : 228,
        "name" : "Opera House",
        "latitude" : 42.664138000000001,
        "longitude" : -93.904390000000006,
        "time" : -2046902400000
      }
    },
    {
      "type" : "Feature",
      "id" : 229,
      "geometry" : {
        "type" : "Point",
        "coordinates" : [
          -93.904389999999978,
          42.664138000000037
        ]
      },
      "properties" : {
        "OBJECTID" : 229,
        "name" : "Opera House",
        "latitude" : 42.664138000000001,
        "longitude" : -93.904390000000006,
        "time" : -2046816000000
      }
    },
    {
      "type" : "Feature",
      "id" : 230,
      "geometry" : {
        "type" : "Point",
        "coordinates" : [
          -93.904389999999978,
          42.664138000000037
        ]
      },
      "properties" : {
        "OBJECTID" : 230,
        "name" : "Opera House",
        "latitude" : 42.664138000000001,
        "longitude" : -93.904390000000006,
        "time" : -2046729600000
      }
    },
    {
      "type" : "Feature",
      "id" : 231,
      "geometry" : {
        "type" : "Point",
        "coordinates" : [
          -92.811161999999968,
          43.284081000000072
        ]
      },
      "properties" : {
        "OBJECTID" : 231,
        "name" : "Opera House",
        "latitude" : 43.284081,
        "longitude" : -92.811161999999996,
        "time" : -2046643200000
      }
    },
    {
      "type" : "Feature",
      "id" : 232,
      "geometry" : {
        "type" : "Point",
        "coordinates" : [
          -92.811161999999968,
          43.284081000000072
        ]
      },
      "properties" : {
        "OBJECTID" : 232,
        "name" : "Opera House",
        "latitude" : 43.284081,
        "longitude" : -92.811161999999996,
        "time" : -2046556800000
      }
    },
    {
      "type" : "Feature",
      "id" : 233,
      "geometry" : {
        "type" : "Point",
        "coordinates" : [
          -92.811161999999968,
          43.284081000000072
        ]
      },
      "properties" : {
        "OBJECTID" : 233,
        "name" : "Opera House",
        "latitude" : 43.284081,
        "longitude" : -92.811161999999996,
        "time" : -2046470400000
      }
    },
    {
      "type" : "Feature",
      "id" : 234,
      "geometry" : {
        "type" : "Point",
        "coordinates" : [
          -92.811161999999968,
          43.284081000000072
        ]
      },
      "properties" : {
        "OBJECTID" : 234,
        "name" : null,
        "latitude" : 43.284081,
        "longitude" : -92.811161999999996,
        "time" : -2046384000000
      }
    },
    {
      "type" : "Feature",
      "id" : 235,
      "geometry" : {
        "type" : "Point",
        "coordinates" : [
          -92.974489999999946,
          43.668093000000056
        ]
      },
      "properties" : {
        "OBJECTID" : 235,
        "name" : "Palace Music Hall",
        "latitude" : 43.668092999999999,
        "longitude" : -92.974490000000003,
        "time" : -2046297600000
      }
    },
    {
      "type" : "Feature",
      "id" : 236,
      "geometry" : {
        "type" : "Point",
        "coordinates" : [
          -92.974489999999946,
          43.668093000000056
        ]
      },